[{"website": "http://team1058.com", "name": "Fleet Ready Corp. / BAE Systems / Show Ready Events / Dumpster Depot / JMD Industries & LONDONDERRY SENIOR HIGH SCHOOL", "locality": "Londonderry", "rookie_year": 2003, "region": "New Hampshire", "team_number": 1058, "location": "Londonderry, New Hampshire, USA", "key": "frc1058", "country_name": "USA", "nickname": "PVC Pirates"}, {"website": "http://www.theforceteam.com", "name": "Waters Corporation / UTC / Parker Hannifin / BAE SYSTEMS & HOLLIS-BROOKLINE HIGH SCHOOL", "locality": "Hollis", "rookie_year": 2003, "region": "New Hampshire", "team_number": 1073, "location": "Hollis, New Hampshire, USA", "key": "frc1073", "country_name": "USA", "nickname": "The Force Team"}, {"website": "http://www.team1099.org", "name": "UTC / PTC & BROOKFIELD HIGH SCHOOL", "locality": "Brookfield", "rookie_year": 2003, "region": "Connecticut", "team_number": 1099, "location": "Brookfield, Connecticut, USA", "key": "frc1099", "country_name": "USA", "nickname": "DiscoTechs"}, {"website": "http://www.team1100.org", "name": "DOW/Boston Scientific & ALGONQUIN REG HIGH", "locality": "Northboro", "rookie_year": 2003, "region": "Massachusetts", "team_number": 1100, "location": "Northboro, Massachusetts, USA", "key": "frc1100", "country_name": "USA", "nickname": "The T-Hawks"}, {"website": "http://www.uberbots.org", "name": "Avon Public Schools/UTC & AVON HIGH SCHOOL", "locality": "Avon", "rookie_year": 2003, "region": "Connecticut", "team_number": 1124, "location": "Avon, Connecticut, USA", "key": "frc1124", "country_name": "USA", "nickname": "UberBots"}, {"website": "http://www.nutrons.com", "name": "Textron Systems/National Grid/Northeastern University & BOSTON LATIN & BROOKLINE HIGH & REVERE HIGH", "locality": "Boston", "rookie_year": 1998, "region": "MA", "team_number": 125, "location": "Boston, MA, USA", "key": "frc125", "country_name": "USA", "nickname": "NUTRONS"}, {"website": "http://team126.org", "name": "Nypro Inc. & CLINTON SENIOR HIGH", "locality": "Clinton", "rookie_year": 1992, "region": "MA", "team_number": 126, "location": "Clinton, MA, USA", "key": "frc126", "country_name": "USA", "nickname": "Gael Force"}, {"website": "http://www.bert133.org", "name": "TEM Inc. / ITS Inc. / Lockheed Martin / Robotics Institute of Maine & BONNY EAGLE HIGH SCHOOL", "locality": "Standish", "rookie_year": 1997, "region": "ME", "team_number": 133, "location": "Standish, ME, USA", "key": "frc133", "country_name": "USA", "nickname": "B.E.R.T"}, {"website": "http://www.robotics138.org", "name": "Monarch Instrument/BAE Systems/Rockwell Automation/SvenGrafik/LCF Amps & SOUHEGAN COOP HIGH SCHOOL", "locality": "Amherst", "rookie_year": 1996, "region": "NH", "team_number": 138, "location": "Amherst, NH, USA", "key": "frc138", "country_name": "USA", "nickname": "Entropy"}, {"website": "http://www.mechanicalmayhem.org", "name": "Dorothy Gould Cook Trust / BAE Systems / PTC / Rockwell Automation & Milford Area Youth Homeschoolers Enriching Minds", "locality": "Milford", "rookie_year": 2005, "region": "New Hampshire", "team_number": 1519, "location": "Milford, New Hampshire, USA", "key": "frc1519", "country_name": "USA", "nickname": "Mechanical Mayhem"}, {"website": "http://usfirst.berlinwall.org", "name": "United Techologies Pratt & Whitney Division, East Hartford, CT & BERLIN HIGH SCHOOL & CATHERINE M. MCGEE MIDDLE SCHOOL", "locality": "Berlin", "rookie_year": 1994, "region": "CT", "team_number": 155, "location": "Berlin, CT, USA", "key": "frc155", "country_name": "USA", "nickname": "The Technonuts"}, {"website": "http://www.chopshop166.com", "name": "BEST BUY / The Bull Family / BAE Systems / PTC / Raytheon & MERRIMACK HIGH SCHOOL", "locality": "Merrimack", "rookie_year": 1995, "region": "NH", "team_number": 166, "location": "Merrimack, NH, USA", "key": "frc166", "country_name": "USA", "nickname": "Chop Shop"}, {"website": "http://www.northernforce.org/wordpress", "name": "Lanco Assembly Systems / IDEXX Laboratories / Robotics Institute of Maine / P&G Tambrands Inc. / Adobe / Texas Instruments & FALMOUTH HIGH SCHOOL & GORHAM HIGH SCHOOL", "locality": "Gorham/Falmouth", "rookie_year": 1996, "region": "ME", "team_number": 172, "location": "Gorham/Falmouth, ME, USA", "key": "frc172", "country_name": "USA", "nickname": "Northern Force"}, {"website": "http://ragerobotics.com", "name": "United Technologies/E&S Gage/CNC Software/JP Fabrication & TOLLAND HIGH SCHOOL & ROCKVILLE HIGH SCHOOL & ELLINGTON HIGH SCHOOL & CONNECTICUT IB ACADEMY & Home School", "locality": "Tolland", "rookie_year": 1995, "region": "CT", "team_number": 173, "location": "Tolland, CT, USA", "key": "frc173", "country_name": "USA", "nickname": "RAGE (Robotics & Gadget Eng)"}, {"website": "http://www.team1735.org", "name": "WPI/Boston Scientific & BURNCOAT SENIOR HIGH", "locality": "Worcester", "rookie_year": 2006, "region": "Massachusetts", "team_number": 1735, "location": "Worcester, Massachusetts, USA", "key": "frc1735", "country_name": "USA", "nickname": "Green Reapers"}, {"website": "http://buzzrobotics.org", "name": "United Technologies Aerospace  Systems Space Systems/PTC & ENRICO FERMI HIGH SCHOOL & ENFIELD HIGH SCHOOL", "locality": "Enfield", "rookie_year": 1996, "region": "CT", "team_number": 175, "location": "Enfield, CT, USA", "key": "frc175", "country_name": "USA", "nickname": "Buzz Robotics"}, {"website": "http://www.aceshigh176.org", "name": "UTC Aerospace Systems/Praxair & WINDSOR LOCKS HIGH SCHOOL & SUFFIELD HIGH SCHOOL", "locality": "Windsor Locks", "rookie_year": 1996, "region": "CT", "team_number": 176, "location": "Windsor Locks, CT, USA", "key": "frc176", "country_name": "USA", "nickname": "Aces High"}, {"website": "http://www.nashobarobotics.org/index.php", "name": "NASHOBA REGIONAL", "locality": "Bolton", "rookie_year": 2006, "region": "Massachusetts", "team_number": 1768, "location": "Bolton, Massachusetts, USA", "key": "frc1768", "country_name": "USA", "nickname": "Robo Chiefs"}, {"website": "http://www.farmingtonrobotics.org", "name": "UTC Otis Elevator / ebm-papst Inc. / UTC Sikorsky / Parker Hannifin Corp. Fluid Control Div. / Barnes Group Inc. & FARMINGTON HIGH SCHOOL", "locality": "Farmington", "rookie_year": 1997, "region": "CT", "team_number": 178, "location": "Farmington, CT, USA", "key": "frc178", "country_name": "USA", "nickname": "The 2nd Law Enforcers"}, {"website": "http://www.team195.com", "name": "United Technologies / Tiger Enterprises / Mohawk Northeast / Saucier Mechanical Services / Construction Insight, Inc. / Pyramid Technologies / Southington Education Foundation / Conveyco & SOUTHINGTON HIGH SCHOOL", "locality": "Southington", "rookie_year": 1998, "region": "CT", "team_number": 195, "location": "Southington, CT, USA", "key": "frc195", "country_name": "USA", "nickname": "Cyber Knights"}, {"website": "http://www.frc2064.com", "name": "Bentley Systems, Inc. / United Technologies / PTC / Nexus Design / Ace Hardware & POMPERAUG REGIONAL HIGH SCHOOL", "locality": "Southbury / Middlebury", "rookie_year": 2007, "region": "Connecticut", "team_number": 2064, "location": "Southbury / Middlebury, Connecticut, USA", "key": "frc2064", "country_name": "USA", "nickname": "The Panther Project"}, {"website": "http://www.applepirobotics.org", "name": "Bishop's Orchards / United Technologies / Rockwell Automation / Moroso Performance Products / AT&T / Intuitive Surgical & 4-H of New Haven County, CT", "locality": "Guilford", "rookie_year": 2007, "region": "Connecticut", "team_number": 2067, "location": "Guilford, Connecticut, USA", "key": "frc2067", "country_name": "USA", "nickname": "Apple Pi"}, {"website": null, "name": "Entergy / Lehnen Industrial Services / Moore Nanotechnology & KEENE HIGH SCHOOL", "locality": "Keene", "rookie_year": 1999, "region": "NH", "team_number": 213, "location": "Keene, NH, USA", "key": "frc213", "country_name": "USA", "nickname": "The Dirty Birds"}, {"website": "http://www.team2168.org", "name": "Pfizer / Applied Physical Sciences / The Hillery Company / Charter Oak Credit Union / NDEP-Naval Submarine Base / SolidWorks & FITCH SENIOR HIGH SCHOOL", "locality": "Groton", "rookie_year": 2007, "region": "Connecticut", "team_number": 2168, "location": "Groton, Connecticut, USA", "key": "frc2168", "country_name": "USA", "nickname": "Aluminum Falcons"}, {"website": "http://www.ghsrobotics.com", "name": "UTC & GLASTONBURY HIGH SCHOOL", "locality": "Glastonbury", "rookie_year": 2007, "region": "Connecticut", "team_number": 2170, "location": "Glastonbury, Connecticut, USA", "key": "frc2170", "country_name": "USA", "nickname": "Titanium Tomahawks"}, {"website": "http://www.shsrobotics.org", "name": "United Technologies/Sikorsky/OEM Controls/Pitney Bowes/Intuitive Surgical/Boeing & SHELTON HIGH SCHOOL", "locality": "Shelton", "rookie_year": 1999, "region": "CT", "team_number": 230, "location": "Shelton, CT, USA", "key": "frc230", "country_name": "USA", "nickname": "Gaelhawks"}, {"website": "http://team2342.org", "name": "Daniel Webster College/Neighborhood Group/Philips Color Kinetics/BAE SYSTEMS/Intel/SANMINA-SCI/Greater Nashua FIRST Robotics, Inc./Intigua, inc.", "locality": "Nashua", "rookie_year": 2008, "region": "New Hampshire", "team_number": 2342, "location": "Nashua, New Hampshire, USA", "key": "frc2342", "country_name": "USA", "nickname": "Team Phoenix"}, {"website": "http://www.technoticks236.com", "name": "Dominion Millstone Power Station/Lyme-Old Lyme Education Foundation (LOLEF)/Lyme-Old Lyme Public Schools/Brooks Associates Precision Machine Tools & LYME-OLD LYME HIGH SCHOOL", "locality": "Old Lyme", "rookie_year": 1999, "region": "CT", "team_number": 236, "location": "Old Lyme, CT, USA", "key": "frc236", "country_name": "USA", "nickname": "Techno-Ticks"}, {"website": "http://team237.com", "name": "Siemon Company / United Technologies Corporation / Trumpf / TUV Rheinland & WATERTOWN HIGH SCHOOL", "locality": "Watertown", "rookie_year": 1999, "region": "CT", "team_number": 237, "location": "Watertown, CT, USA", "key": "frc237", "country_name": "USA", "nickname": "Black Magic Robotics"}, {"website": "http://www.bu.edu/bufirst", "name": "Boston University & BOSTON UNIVERSITY ACADEMY", "locality": "Boston", "rookie_year": 1999, "region": "MA", "team_number": 246, "location": "Boston, MA, USA", "key": "frc246", "country_name": "USA", "nickname": "Overclocked"}, {"website": "http://www.team2648.com", "name": "Wrabacon, Inc/The Robotics Institute of Maine/TRC/Maine State Credit Union & MESSALONSKEE HIGH SCHOOL", "locality": "Oakland", "rookie_year": 2008, "region": "Maine", "team_number": 2648, "location": "Oakland, Maine, USA", "key": "frc2648", "country_name": "USA", "nickname": "Infinite Loop"}, {"website": "http://www.teambeta.org", "name": "ebm-papst Inc. / United Technologies Corporation / Sealed Air / ionBank / Thomaston Savings Bank & NONNEWAUG HIGH SCHOOL", "locality": "Woodbury", "rookie_year": 2009, "region": "Connecticut", "team_number": 2836, "location": "Woodbury, Connecticut, USA", "key": "frc2836", "country_name": "USA", "nickname": "Team Beta"}, {"website": "http://www.bhsrobotix.com", "name": "Lockheed Martin Co / Renesas / NRG / PTC & BURLINGTON HIGH", "locality": "Burlington", "rookie_year": 2009, "region": "Massachusetts", "team_number": 2876, "location": "Burlington, Massachusetts, USA", "key": "frc2876", "country_name": "USA", "nickname": "Devilbotz"}, {"website": "http://www.ligerbots.com", "name": "PTC / Raytheon / Textron / National Defense Education Program / Dunkin Donuts / Google / McVittie Tax Advisors / At Once Inc. / Whole Foods / Newton Schools Foundation / Newton Public Schools & NEWTON SOUTH HIGH & NEWTON NORTH HIGH", "locality": "Newton", "rookie_year": 2009, "region": "Massachusetts", "team_number": 2877, "location": "Newton, Massachusetts, USA", "key": "frc2877", "country_name": "USA", "nickname": "LigerBots"}, {"website": null, "name": "United Technologies / Paines, Inc. / Granby Education Foundation / Westwood Products Inc. / SolidWorks & GRANBY MEMORIAL HIGH SCHOOL", "locality": "Granby", "rookie_year": 2010, "region": "Connecticut", "team_number": 3146, "location": "Granby, Connecticut, USA", "key": "frc3146", "country_name": "USA", "nickname": "GRANBY GRUNTS"}, {"website": "http://www.frc319.com", "name": "Symbotic / NDEP / DB Data Inc. / Liberty Machine / West Alton Marina L.L.C. & PROSPECT MOUNTAIN HIGH SCHOOL", "locality": "Alton", "rookie_year": 1999, "region": "NH", "team_number": 319, "location": "Alton, NH, USA", "key": "frc319", "country_name": "USA", "nickname": "Big Bad Bob"}, {"website": null, "name": "United Technologies Corporation/Ensign Bickford & SIMSBURY HIGH SCHOOL", "locality": "Simsbury", "rookie_year": 2011, "region": "Connecticut", "team_number": 3464, "location": "Simsbury, Connecticut, USA", "key": "frc3464", "country_name": "USA", "nickname": "Sim-City"}, {"website": "http://www.team3467.org", "name": "Veloxion / Windham High School / Willseal USA / Highland Street Foundation / BAE Systems / Veolia Environmental Services & Windup Robotics 4-H Club", "locality": "Windham", "rookie_year": 2011, "region": "New Hampshire", "team_number": 3467, "location": "Windham, New Hampshire, USA", "key": "frc3467", "country_name": "USA", "nickname": "The Windham Windup"}, {"website": "http://roboticsteam3718.org/wp", "name": "United Technologies & E. C. GOODWIN TECHNICAL HIGH SCHOOL", "locality": "New Britain", "rookie_year": 2011, "region": "Connecticut", "team_number": 3718, "location": "New Britain, Connecticut, USA", "key": "frc3718", "country_name": "USA", "nickname": "Junkyard Battalion"}, {"website": "https://SMART3930.com", "name": "Robotics Institute of Maine / Ted Berry Inc. / Society of Women Engineers & Spruce Mountain High School", "locality": null, "rookie_year": 2012, "region": null, "team_number": 3930, "location": null, "key": "frc3930", "country_name": null, "nickname": "SMART  Spruce Mountain Area Robotics Team"}, {"website": "http://www.team4048.org", "name": "Solidworks / EMC / Staples / Intel / Berkshire Bank / Allegro Microsystems / Dow Chemical / Wegmans / AstraZeneca / Bainwood Huang / Ball Financial Services / Boston Scientific / CAPINC / Middlesex Savings Bank / Raytheon / Science Careers / Textron / Amica / Bose / Hologic / PTC / Tufts University Cummings School / Teradyne / Westborough Civic Club / Avidia Bank / Buffalo Wild Wings / Central One Federal Credit Union / EMSEAL Joint Systems Ltd. / Rotary Club of Westborough / St.Mary's Credit Union / Webster Five Savings Bank / CVS Health & WESTBOROUGH HIGH", "locality": "Westborough", "rookie_year": 2012, "region": "Massachusetts", "team_number": 4048, "location": "Westborough, Massachusetts, USA", "key": "frc4048", "country_name": "USA", "nickname": "Redshift"}, {"website": "http://www.nrg4055.org", "name": "Alcoa Foundation / United Technologies / Whiting Mills LLC / RoBrand Products, Inc. / J&P Building and Remodeling, LLC & NORTHWESTERN REGIONAL HIGH SCHOOL", "locality": "Winchester", "rookie_year": 2012, "region": "Connecticut", "team_number": 4055, "location": "Winchester, Connecticut, USA", "key": "frc4055", "country_name": "USA", "nickname": "N R G  (Northwestern Robotics Gearheads)"}, {"website": null, "name": "ABINGTON FRIENDS SCHOOL", "locality": "Jenkintown", "rookie_year": 2012, "region": "Pennsylvania", "team_number": 4373, "location": "Jenkintown, Pennsylvania, USA", "key": "frc4373", "country_name": "USA", "nickname": "RooBotics"}, {"website": "http://dovershockwave.wix.com/shockwaverobotics", "name": "ArgenTech Solutions / Comcast / Ultimaker / NDEP / IPSUMM / Dominos Pizza / Patten Tool Engineering / Portsmouth Naval Shipyard & DOVER SENIOR HIGH SCHOOL", "locality": "Dover", "rookie_year": 2013, "region": "New Hampshire", "team_number": 4546, "location": "Dover, New Hampshire, USA", "key": "frc4546", "country_name": "USA", "nickname": "ShockWave"}, {"website": "http://brewerfirstrobotics.com", "name": "Robotics Institute of Maine / Lynx System Developers Inc. / Maine Society of Professional Engineers / US Air Force / Lane Conveyor & Supply & BREWER HIGH SCHOOL", "locality": "Brewer", "rookie_year": 2013, "region": "Maine", "team_number": 4564, "location": "Brewer, Maine, USA", "key": "frc4564", "country_name": "USA", "nickname": "Orange Chaos"}, {"website": "http://www.shrewsburyrobotics.org", "name": "Vangy Tool Company/Shrewsbury Robotics & SHREWSBURY SR HIGH", "locality": "Shrewsbury", "rookie_year": 2000, "region": "MA", "team_number": 467, "location": "Shrewsbury, MA, USA", "key": "frc467", "country_name": "USA", "nickname": "Shrewsbury Colonials"}, {"website": "http://robockets.org", "name": "United Technologies / Reading Educational Foundation / Bottomline Technologies / Textron Systems / Epsilon / Teradyne / Pfizer & READING MEMORIAL HIGH", "locality": "Reading", "rookie_year": 2013, "region": "Massachusetts", "team_number": 4761, "location": "Reading, Massachusetts, USA", "key": "frc4761", "country_name": "USA", "nickname": "The Robockets"}, {"website": "http://andromedaone.wordpress.com", "name": "Boston Scientific / NASA / Ayer Shirley Education Foundation / Consigli Construction / Dore & Whittier / Symmes Maini & McKee Associates, Inc / BAE Systems / SolidWorks / Lucia's Tavola & AYER SHIRLEY REGIONAL HIGH SCHOOL", "locality": "Ayer", "rookie_year": 2014, "region": "Massachusetts", "team_number": 4905, "location": "Ayer, Massachusetts, USA", "key": "frc4905", "country_name": "USA", "nickname": "Andromeda One"}, {"website": "http://team4909.org", "name": "NASA / MRSI Systems / PTC / Textron Systems / Raytheon & BILLERICA MEMORIAL HIGH SCHOOL", "locality": "Billerica", "rookie_year": 2014, "region": "Massachusetts", "team_number": 4909, "location": "Billerica, Massachusetts, USA", "key": "frc4909", "country_name": "USA", "nickname": "Bionics"}, {"website": "http://www.powerknights.com", "name": "BURNDY/Dyn/4-H & MANCHESTER WEST HIGH SCHOOL & GOFFSTOWN HIGH SCHOOL", "locality": "Manchester", "rookie_year": 2001, "region": "NH", "team_number": 501, "location": "Manchester, NH, USA", "key": "frc501", "country_name": "USA", "nickname": "The PowerKnights"}, {"website": "http://www.team5122.com", "name": "RSU #34 School District / NASA / The Robotics Institute of Maine / UMaine IEEE Club / Formtek Maine / Bangor Neon / Fairchild Semiconductor & OLD TOWN HIGH SCHOOL", "locality": "Old Town", "rookie_year": 2014, "region": "Maine", "team_number": 5122, "location": "Old Town, Maine, USA", "key": "frc5122", "country_name": "USA", "nickname": "robOTies"}, {"website": "http://www.facebook.com/frcteamwarp", "name": "NASA / Howard Products Inc. / BAE Systems & Worcester County 4-H & Worcester Area Robotics Project", "locality": "Worcester", "rookie_year": 2015, "region": "Massachusetts", "team_number": 5400, "location": "Worcester, Massachusetts, USA", "key": "frc5400", "country_name": "USA", "nickname": "WARP"}, {"website": "http://www.stormgears.org", "name": "NASA / Creation Station, LLC / PTC / United Technologies (UTC) / Analog Devices / SMC LTC / E.T. Duval & Sons / Add-A-Sign, LLC / BAE Systems & Westford Youth Robotics 4-H Club", "locality": "Westford", "rookie_year": 2015, "region": "Massachusetts", "team_number": 5422, "location": "Westford, Massachusetts, USA", "key": "frc5422", "country_name": "USA", "nickname": "Stormgears FRC"}, {"website": "http://robosquad558.weebly.com", "name": "Yale University/United Illuminating/United Technologies Corp./Comcast & HILL REGIONAL CAREER HIGH SCHOOL", "locality": "New Haven", "rookie_year": 2001, "region": "CT", "team_number": 558, "location": "New Haven, CT, USA", "key": "frc558", "country_name": "USA", "nickname": "Robo Squad"}, {"website": null, "name": "Baxter Academy for Science & Technology", "locality": "Portland", "rookie_year": 2015, "region": "Maine", "team_number": 5687, "location": "Portland, Maine, USA", "key": "frc5687", "country_name": "USA", "nickname": "The Outliers"}, {"website": null, "name": "Teradyne / The Village Bank / MiddleSex Savings Bank & Neighborhood Group", "locality": "Wayland", "rookie_year": 2015, "region": "Massachusetts", "team_number": 5735, "location": "Wayland, Massachusetts, USA", "key": "frc5735", "country_name": "USA", "nickname": "Control Freaks"}, {"website": null, "name": "Fez Inc. Inc.", "locality": "Newport", "rookie_year": 2015, "region": "New Hampshire", "team_number": 5782, "location": "Newport, New Hampshire, USA", "key": "frc5782", "country_name": "USA", "nickname": "Sullivan 4H-Newport"}, {"website": "http://www.riotcrew.org", "name": "Fairchild Semiconductor/Robotics Institute of Maine & SOUTH PORTLAND HIGH SCHOOL", "locality": "South Portland", "rookie_year": 1996, "region": "ME", "team_number": 58, "location": "South Portland, ME, USA", "key": "frc58", "country_name": "USA", "nickname": "The Riot Crew"}, {"website": "http://www.valleytech.k12.ma.us/Robotics/Team61_index.html", "name": "Blackstone Valley Vocational Regional School District/EMC/QinetiQ North America/Harry's Pizza Whitinsville/PTC & BLACKSTONE VALLEY", "locality": "Upton", "rookie_year": 1995, "region": "MA", "team_number": 61, "location": "Upton, MA, USA", "key": "frc61", "country_name": "USA", "nickname": "The Intimidators"}, {"website": "http://www.wcsrobotics.com", "name": "Information Development, America/IWAKI America, Walchem/Kuik Electric/WRT Management Corp. & WHITINSVILLE CHRISTIAN SCHOOL", "locality": "Whitinsville", "rookie_year": 2001, "region": "MA", "team_number": 663, "location": "Whitinsville, MA, USA", "key": "frc663", "country_name": "USA", "nickname": "Robonauts"}, {"website": "http://www.716robotics.com", "name": "BD/C. A. Lindell/21st Century Fund/Montgomery Lodge No. 13 A.F. & A.M. & HOUSATONIC VALLEY REGIONAL HIGH SCHOOL", "locality": "Falls Village", "rookie_year": 2001, "region": "Connecticut", "team_number": 716, "location": "Falls Village, Connecticut, USA", "key": "frc716", "country_name": "USA", "nickname": "Who'sCTEKS"}, {"website": "http://www.air4h.org", "name": "Naval Undersea Warfare Center/National Defense Education Program/Raytheon/KVH Industries & Aquidneck Island Robotics 4-H Club", "locality": "Newport", "rookie_year": 1996, "region": "RI", "team_number": 78, "location": "Newport, RI, USA", "key": "frc78", "country_name": "USA", "nickname": "AIR Strike"}, {"website": "http://www.team811.com", "name": "BAE SYSTEMS / Raytheon IDS / Intel / Society of Women Engineers / United States Air Force / Specialty Kitchens & BISHOP GUERTIN HIGH SCHOOL", "locality": "Nashua", "rookie_year": 2002, "region": "New Hampshire", "team_number": 811, "location": "Nashua, New Hampshire, USA", "key": "frc811", "country_name": "USA", "nickname": "Cardinals"}, {"website": "http://www.tj2.org", "name": "Harpak-ULMA/NTT Data/DePuy & BRIDGEWATER-RAYNHAM REG", "locality": "Bridgewater", "rookie_year": 1996, "region": "MA", "team_number": 88, "location": "Bridgewater, MA, USA", "key": "frc88", "country_name": "USA", "nickname": "TJ(Squared)"}, {"website": "http://frcteam885.com", "name": "NDEP/Neighborhood Group/CRREL/Vermont Technical College/GW Plastics & The Sharon Academy & Randolph Union High School", "locality": "Randolph Center", "rookie_year": 2002, "region": "Vermont", "team_number": 885, "location": "Randolph Center, Vermont, USA", "key": "frc885", "country_name": "USA", "nickname": "THE GREEN TEAM"}, {"website": "http://www.r95.org", "name": "CRREL/HACTC IMW/BAE Systems & LEBANON HIGH SCHOOL", "locality": "Lebanon", "rookie_year": 1997, "region": "NH", "team_number": 95, "location": "Lebanon, NH, USA", "key": "frc95", "country_name": "USA", "nickname": "Grasshoppers"}, {"website": "http://FRCTeam999.com", "name": "Cheshire Public Schools / UTC & CHESHIRE HIGH SCHOOL", "locality": "Cheshire", "rookie_year": 2002, "region": "Connecticut", "team_number": 999, "location": "Cheshire, Connecticut, USA", "key": "frc999", "country_name": "USA", "nickname": "MechaRams"}]